
var places = { data:[
{
    "source": "Hadiyatarifin",
    "lat": 33.35932,
    "lon": 44.35693,
    "value": 298,
    "size": 40,
    "arTitle": "بغداد",
    "translitTitle": "Baġdād",
    "UStranslitTitle": "Baghdād",
    "translitSimpleTitle": "Baghdad",
    "topType": "temp",
    },

{
    "source": "Hadiyatarifin",
    "lat": 33.51843,
    "lon": 36.30199,
    "value": 274,
    "size": 39,
    "arTitle": "دمشق",
    "translitTitle": "Dimašq",
    "UStranslitTitle": "Dimashq",
    "translitSimpleTitle": "Dimashq",
    "topType": "metropoles",
    },

{
    "source": "Hadiyatarifin",
    "lat": 21.39132,
    "lon": 39.83612,
    "value": 227,
    "size": 38,
    "arTitle": "مكة",
    "translitTitle": "Makkaŧ",
    "UStranslitTitle": "Makka",
    "translitSimpleTitle": "Makka",
    "topType": "temp",
    },

{
    "source": "Hadiyatarifin",
    "lat": 24.47782,
    "lon": 39.60908,
    "value": 147,
    "size": 35,
    "arTitle": "يثرب|المدينة",
    "translitTitle": "Yaṯrib/al-Madīnaŧ",
    "UStranslitTitle": "Yathrib/al-Madīna",
    "translitSimpleTitle": "Yathrib/al-Madina",
    "topType": "temp",
    },

{
    "source": "Hadiyatarifin",
    "lat": 30.05778,
    "lon": 31.24168,
    "value": 100,
    "size": 32,
    "arTitle": "القاهرة",
    "translitTitle": "al-Qāhiraŧ",
    "UStranslitTitle": "al-Qāhira",
    "translitSimpleTitle": "al-Qahira",
    "topType": "temp",
    },

{
    "source": "Hadiyatarifin",
    "lat": 36.19828,
    "lon": 37.17518,
    "value": 97,
    "size": 32,
    "arTitle": "حلب",
    "translitTitle": "Ḥalab",
    "UStranslitTitle": "Ḥalab",
    "translitSimpleTitle": "Halab",
    "topType": "capitals",
    },

{
    "source": "Hadiyatarifin",
    "lat": 32.66634,
    "lon": 51.66477,
    "value": 68,
    "size": 29,
    "arTitle": "إصبهان",
    "translitTitle": "Iṣbahān",
    "UStranslitTitle": "Iṣbahān",
    "translitSimpleTitle": "Isbahan",
    "topType": "temp",
    },

{
    "source": "Hadiyatarifin",
    "lat": 31.77768,
    "lon": 35.20345,
    "value": 56,
    "size": 28,
    "arTitle": "بيت المقدس|القدس|إيليا",
    "translitTitle": "Bayt al-Maqdis/al-Quds/Īliyā",
    "UStranslitTitle": "Bayt al-Maqdis/al-Quds/Īliyā",
    "translitSimpleTitle": "Bayt al-Maqdis/al-Quds/Iliya",
    "topType": "towns",
    },

{
    "source": "Hadiyatarifin",
    "lat": 30.40147,
    "lon": 47.71735,
    "value": 53,
    "size": 27,
    "arTitle": "البصرة",
    "translitTitle": "al-Baṣraŧ",
    "UStranslitTitle": "al-Baṣra",
    "translitSimpleTitle": "al-Basra",
    "topType": "temp",
    },

{
    "source": "Hadiyatarifin",
    "lat": 36.32809,
    "lon": 43.12700,
    "value": 52,
    "size": 27,
    "arTitle": "الموصل",
    "translitTitle": "al-Mawṣil",
    "UStranslitTitle": "al-Mawṣil",
    "translitSimpleTitle": "al-Mawsil",
    "topType": "temp",
    },

{
    "source": "Hadiyatarifin",
    "lat": 30.11392,
    "lon": 54.41315,
    "value": 45,
    "size": 26,
    "arTitle": "هراة",
    "translitTitle": "Harāŧ",
    "UStranslitTitle": "Harā",
    "translitSimpleTitle": "Hara",
    "topType": "temp",
    },

{
    "source": "Hadiyatarifin",
    "lat": 36.21692,
    "lon": 58.81270,
    "value": 42,
    "size": 26,
    "arTitle": "نيسابور",
    "translitTitle": "Naysābūr",
    "UStranslitTitle": "Naysābūr",
    "translitSimpleTitle": "Naysabur",
    "topType": "temp",
    },

{
    "source": "Hadiyatarifin",
    "lat": 29.61884,
    "lon": 52.52867,
    "value": 37,
    "size": 25,
    "arTitle": "شيراز",
    "translitTitle": "Šīrāz",
    "UStranslitTitle": "Shīrāz",
    "translitSimpleTitle": "Shiraz",
    "topType": "temp",
    },

{
    "source": "Hadiyatarifin",
    "lat": 31.19490,
    "lon": 29.90981,
    "value": 32,
    "size": 24,
    "arTitle": "الإسكندرية",
    "translitTitle": "al-Iskandariyyaŧ",
    "UStranslitTitle": "al-Iskandariyya",
    "translitSimpleTitle": "al-Iskandariyya",
    "topType": "temp",
    },

{
    "source": "Hadiyatarifin",
    "lat": 34.44044,
    "lon": 35.85194,
    "value": 28,
    "size": 23,
    "arTitle": "أطرابلس|طرابلس",
    "translitTitle": "Aṭrābulus/Ṭarābulus",
    "UStranslitTitle": "Aṭrābulus/Ṭarābulus",
    "translitSimpleTitle": "Atrabulus/Tarabulus",
    "topType": "towns",
    },

{
    "source": "Hadiyatarifin",
    "lat": 39.67905,
    "lon": 67.03225,
    "value": 28,
    "size": 23,
    "arTitle": "سمرقند",
    "translitTitle": "Samarqand",
    "UStranslitTitle": "Samarqand",
    "translitSimpleTitle": "Samarqand",
    "topType": "temp",
    },

{
    "source": "Hadiyatarifin",
    "lat": 37.67193,
    "lon": 62.10386,
    "value": 26,
    "size": 22,
    "arTitle": "مرو",
    "translitTitle": "Marw",
    "UStranslitTitle": "Marw",
    "translitSimpleTitle": "Marw",
    "topType": "temp",
    },

{
    "source": "Hadiyatarifin",
    "lat": 32.19497,
    "lon": 46.32308,
    "value": 25,
    "size": 22,
    "arTitle": "واسط",
    "translitTitle": "Wāsiṭ",
    "UStranslitTitle": "Wāsiṭ",
    "translitSimpleTitle": "Wasit",
    "topType": "temp",
    },

{
    "source": "Hadiyatarifin",
    "lat": 37.20621,
    "lon": -3.59980,
    "value": 25,
    "size": 22,
    "arTitle": "غرناطة",
    "translitTitle": "Ġarnāṭaŧ",
    "UStranslitTitle": "Gharnāṭa",
    "translitSimpleTitle": "Gharnata",
    "topType": "temp",
    },

{
    "source": "Hadiyatarifin",
    "lat": 14.19526,
    "lon": 43.23381,
    "value": 21,
    "size": 21,
    "arTitle": "زبيد",
    "translitTitle": "Zabīd",
    "UStranslitTitle": "Zabīd",
    "translitSimpleTitle": "Zabid",
    "topType": "temp",
    },

{
    "source": "Hadiyatarifin",
    "lat": 32.04478,
    "lon": 44.38138,
    "value": 21,
    "size": 21,
    "arTitle": "الكوفة",
    "translitTitle": "al-Kūfaŧ",
    "UStranslitTitle": "al-Kūfa",
    "translitSimpleTitle": "al-Kufa",
    "topType": "temp",
    },

{
    "source": "Hadiyatarifin",
    "lat": 36.86202,
    "lon": -2.50099,
    "value": 19,
    "size": 20,
    "arTitle": "المرية",
    "translitTitle": "al-Mariyyaŧ",
    "UStranslitTitle": "al-Mariyya",
    "translitSimpleTitle": "al-Mariyya",
    "topType": "temp",
    },

{
    "source": "Hadiyatarifin",
    "lat": 35.62914,
    "lon": 51.43887,
    "value": 19,
    "size": 20,
    "arTitle": "الري",
    "translitTitle": "al-Rayy",
    "UStranslitTitle": "al-Rayy",
    "translitSimpleTitle": "al-Rayy",
    "topType": "temp",
    },

{
    "source": "Hadiyatarifin",
    "lat": 31.95598,
    "lon": 34.88482,
    "value": 18,
    "size": 20,
    "arTitle": "لد",
    "translitTitle": "Ludd",
    "UStranslitTitle": "Ludd",
    "translitSimpleTitle": "Ludd",
    "topType": "villages",
    },

{
    "source": "Hadiyatarifin",
    "lat": 34.06727,
    "lon": -5.02852,
    "value": 18,
    "size": 20,
    "arTitle": "فاس",
    "translitTitle": "Fās",
    "UStranslitTitle": "Fās",
    "translitSimpleTitle": "Fas",
    "topType": "temp",
    },

{
    "source": "Hadiyatarifin",
    "lat": 37.33269,
    "lon": 54.99028,
    "value": 18,
    "size": 20,
    "arTitle": "جرجان",
    "translitTitle": "Ǧurǧān",
    "UStranslitTitle": "Jurjān",
    "translitSimpleTitle": "Jurjan",
    "topType": "regions",
    },

{
    "source": "Hadiyatarifin",
    "lat": 36.77071,
    "lon": 10.17736,
    "value": 18,
    "size": 20,
    "arTitle": "تونس",
    "translitTitle": "Tūnis",
    "UStranslitTitle": "Tūnis",
    "translitSimpleTitle": "Tunis",
    "topType": "temp",
    },

{
    "source": "Hadiyatarifin",
    "lat": 38.06387,
    "lon": 46.33121,
    "value": 16,
    "size": 19,
    "arTitle": "تبريز",
    "translitTitle": "Tabrīz",
    "UStranslitTitle": "Tabrīz",
    "translitSimpleTitle": "Tabriz",
    "topType": "temp",
    },

{
    "source": "Hadiyatarifin",
    "lat": 23.72676,
    "lon": 38.80098,
    "value": 15,
    "size": 19,
    "arTitle": "بدر",
    "translitTitle": "Badr",
    "UStranslitTitle": "Badr",
    "translitSimpleTitle": "Badr",
    "topType": "temp",
    },

{
    "source": "Hadiyatarifin",
    "lat": 35.70049,
    "lon": 10.14137,
    "value": 15,
    "size": 19,
    "arTitle": "القيروان",
    "translitTitle": "al-Qayrawān",
    "UStranslitTitle": "al-Qayrawān",
    "translitSimpleTitle": "al-Qayrawan",
    "topType": "temp",
    },

{
    "source": "Hadiyatarifin",
    "lat": 31.43739,
    "lon": 31.79125,
    "value": 14,
    "size": 18,
    "arTitle": "دمياط",
    "translitTitle": "Dimyāṭ",
    "UStranslitTitle": "Dimyāṭ",
    "translitSimpleTitle": "Dimyat",
    "topType": "temp",
    },

{
    "source": "Hadiyatarifin",
    "lat": 41.65733,
    "lon": 59.97545,
    "value": 14,
    "size": 18,
    "arTitle": "خوارزم",
    "translitTitle": "Ḫuwārizm",
    "UStranslitTitle": "Khuwārizm",
    "translitSimpleTitle": "Khuwarizm",
    "topType": "regions",
    },

{
    "source": "Hadiyatarifin",
    "lat": 36.78497,
    "lon": 66.88305,
    "value": 14,
    "size": 18,
    "arTitle": "بلخ",
    "translitTitle": "Balḫ",
    "UStranslitTitle": "Balkh",
    "translitSimpleTitle": "Balkh",
    "topType": "temp",
    },

{
    "source": "Hadiyatarifin",
    "lat": 12.81210,
    "lon": 44.99099,
    "value": 13,
    "size": 18,
    "arTitle": "عدن",
    "translitTitle": "ʿAdan",
    "UStranslitTitle": "ʿAdan",
    "translitSimpleTitle": "Adan",
    "topType": "temp",
    },

{
    "source": "Hadiyatarifin",
    "lat": 30.04436,
    "lon": 31.21122,
    "value": 13,
    "size": 18,
    "arTitle": "الجزيرة",
    "translitTitle": "al-Ǧazīraŧ",
    "UStranslitTitle": "al-Jazīra",
    "translitSimpleTitle": "al-Jazira",
    "topType": "temp",
    },

{
    "source": "Hadiyatarifin",
    "lat": 15.57151,
    "lon": 44.12811,
    "value": 12,
    "size": 17,
    "arTitle": "همدان",
    "translitTitle": "Hamdān",
    "UStranslitTitle": "Hamdān",
    "translitSimpleTitle": "Hamdan",
    "topType": "regions",
    },

{
    "source": "Hadiyatarifin",
    "lat": 39.88926,
    "lon": -4.05210,
    "value": 12,
    "size": 17,
    "arTitle": "طليطلة",
    "translitTitle": "Ṭulayṭilaŧ",
    "UStranslitTitle": "Ṭulayṭila",
    "translitSimpleTitle": "Tulaytila",
    "topType": "temp",
    },

{
    "source": "Hadiyatarifin",
    "lat": 32.59694,
    "lon": 45.42650,
    "value": 11,
    "size": 16,
    "arTitle": "النعمانية",
    "translitTitle": "al-Nuʿmāniyyaŧ",
    "UStranslitTitle": "al-Nuʿmāniyya",
    "translitSimpleTitle": "al-Numaniyya",
    "topType": "temp",
    },

{
    "source": "Hadiyatarifin",
    "lat": 31.92484,
    "lon": 34.86436,
    "value": 11,
    "size": 16,
    "arTitle": "الرملة",
    "translitTitle": "al-Ramlaŧ",
    "UStranslitTitle": "al-Ramla",
    "translitSimpleTitle": "al-Ramla",
    "topType": "capitals",
    },

{
    "source": "Hadiyatarifin",
    "lat": 36.27854,
    "lon": 50.00110,
    "value": 10,
    "size": 16,
    "arTitle": "قزوين",
    "translitTitle": "Qazwīn",
    "UStranslitTitle": "Qazwīn",
    "translitSimpleTitle": "Qazwin",
    "topType": "temp",
    },

{
    "source": "Hadiyatarifin",
    "lat": 40.33989,
    "lon": 72.02839,
    "value": 10,
    "size": 16,
    "arTitle": "فرغانة",
    "translitTitle": "Farġānaŧ",
    "UStranslitTitle": "Farghāna",
    "translitSimpleTitle": "Farghana",
    "topType": "regions",
    },

{
    "source": "Hadiyatarifin",
    "lat": 21.21629,
    "lon": 40.40566,
    "value": 10,
    "size": 16,
    "arTitle": "الطائف",
    "translitTitle": "al-Ṭāʾif",
    "UStranslitTitle": "al-Ṭāʾif",
    "translitSimpleTitle": "al-Taif",
    "topType": "temp",
    },

{
    "source": "Hadiyatarifin",
    "lat": 32.22047,
    "lon": 35.24238,
    "value": 9,
    "size": 15,
    "arTitle": "نابلس",
    "translitTitle": "Nābulus",
    "UStranslitTitle": "Nābulus",
    "translitSimpleTitle": "Nabulus",
    "topType": "towns",
    },

{
    "source": "Hadiyatarifin",
    "lat": 36.33790,
    "lon": 6.62703,
    "value": 9,
    "size": 15,
    "arTitle": "قسطنطنية",
    "translitTitle": "Qusṭanṭiniyyaŧ",
    "UStranslitTitle": "Qusṭanṭiniyya",
    "translitSimpleTitle": "Qustantiniyya",
    "topType": "temp",
    },

{
    "source": "Hadiyatarifin",
    "lat": 37.91510,
    "lon": 40.21323,
    "value": 9,
    "size": 15,
    "arTitle": "آمد",
    "translitTitle": "Āmid",
    "UStranslitTitle": "Āmid",
    "translitSimpleTitle": "Amid",
    "topType": "temp",
    },

{
    "source": "Hadiyatarifin",
    "lat": 37.40790,
    "lon": -5.96199,
    "value": 9,
    "size": 15,
    "arTitle": "إشبيلية",
    "translitTitle": "Išbīliyyaŧ",
    "UStranslitTitle": "Ishbīliyya",
    "translitSimpleTitle": "Ishbiliyya",
    "topType": "temp",
    },

{
    "source": "Hadiyatarifin",
    "lat": 36.74791,
    "lon": -4.43066,
    "value": 8,
    "size": 14,
    "arTitle": "مالقة",
    "translitTitle": "Māliqaŧ",
    "UStranslitTitle": "Māliqa",
    "translitSimpleTitle": "Maliqa",
    "topType": "temp",
    },

{
    "source": "Hadiyatarifin",
    "lat": 15.41877,
    "lon": 44.17050,
    "value": 8,
    "size": 14,
    "arTitle": "صنعاء",
    "translitTitle": "Ṣanʿāʾ",
    "UStranslitTitle": "Ṣanʿāʾ",
    "translitSimpleTitle": "Sana",
    "topType": "temp",
    },

{
    "source": "Hadiyatarifin",
    "lat": 34.73793,
    "lon": 36.72425,
    "value": 8,
    "size": 14,
    "arTitle": "حمص",
    "translitTitle": "Ḥimṣ",
    "UStranslitTitle": "Ḥimṣ",
    "translitSimpleTitle": "Hims",
    "topType": "capitals",
    },

{
    "source": "Hadiyatarifin",
    "lat": 34.88186,
    "lon": -1.32364,
    "value": 8,
    "size": 14,
    "arTitle": "تلمسان",
    "translitTitle": "Tilimsān",
    "UStranslitTitle": "Tilimsān",
    "translitSimpleTitle": "Tilimsan",
    "topType": "temp",
    },

{
    "source": "Hadiyatarifin",
    "lat": 13.69225,
    "lon": 44.17508,
    "value": 8,
    "size": 14,
    "arTitle": "الجند",
    "translitTitle": "al-Ǧanad",
    "UStranslitTitle": "al-Janad",
    "translitSimpleTitle": "al-Janad",
    "topType": "temp",
    },

{
    "source": "Hadiyatarifin",
    "lat": 25.91848,
    "lon": 32.74342,
    "value": 7,
    "size": 13,
    "arTitle": "قوص",
    "translitTitle": "Qūṣ",
    "UStranslitTitle": "Qūṣ",
    "translitSimpleTitle": "Qus",
    "topType": "temp",
    },

{
    "source": "Hadiyatarifin",
    "lat": 36.88438,
    "lon": 39.08906,
    "value": 7,
    "size": 13,
    "arTitle": "حران",
    "translitTitle": "Ḥarrān",
    "UStranslitTitle": "Ḥarrān",
    "translitSimpleTitle": "Harran",
    "topType": "temp",
    },

{
    "source": "Hadiyatarifin",
    "lat": 33.90162,
    "lon": 35.50910,
    "value": 7,
    "size": 13,
    "arTitle": "بيروت",
    "translitTitle": "Bayrūt",
    "UStranslitTitle": "Bayrūt",
    "translitSimpleTitle": "Bayrut",
    "topType": "towns",
    },

{
    "source": "Hadiyatarifin",
    "lat": 37.53493,
    "lon": -5.10865,
    "value": 7,
    "size": 13,
    "arTitle": "إستجة",
    "translitTitle": "Istiǧaŧ",
    "UStranslitTitle": "Istija",
    "translitSimpleTitle": "Istija",
    "topType": "temp",
    },

{
    "source": "Hadiyatarifin",
    "lat": 23.51137,
    "lon": 39.02138,
    "value": 6,
    "size": 12,
    "arTitle": "الحجاز",
    "translitTitle": "al-Ḥiǧāz",
    "UStranslitTitle": "al-Ḥijāz",
    "translitSimpleTitle": "al-Hijaz",
    "topType": "regions",
    },

{
    "source": "Hadiyatarifin",
    "lat": 38.86245,
    "lon": 65.81040,
    "value": 5,
    "size": 11,
    "arTitle": "نسف",
    "translitTitle": "Nasaf",
    "UStranslitTitle": "Nasaf",
    "translitSimpleTitle": "Nasaf",
    "topType": "temp",
    },

{
    "source": "Hadiyatarifin",
    "lat": 31.99100,
    "lon": 44.32184,
    "value": 5,
    "size": 11,
    "arTitle": "نجف",
    "translitTitle": "Naǧaf",
    "UStranslitTitle": "Najaf",
    "translitSimpleTitle": "Najaf",
    "topType": "temp",
    },

{
    "source": "Hadiyatarifin",
    "lat": 35.12587,
    "lon": 36.76872,
    "value": 5,
    "size": 11,
    "arTitle": "حماة",
    "translitTitle": "Ḥamāŧ",
    "UStranslitTitle": "Ḥamā",
    "translitSimpleTitle": "Hama",
    "topType": "towns",
    },

{
    "source": "Hadiyatarifin",
    "lat": 37.78977,
    "lon": -3.80302,
    "value": 5,
    "size": 11,
    "arTitle": "جيان",
    "translitTitle": "Ǧayyān",
    "UStranslitTitle": "Jayyān",
    "translitSimpleTitle": "Jayyan",
    "topType": "temp",
    },

{
    "source": "Hadiyatarifin",
    "lat": 36.47417,
    "lon": 42.75800,
    "value": 5,
    "size": 11,
    "arTitle": "بلد",
    "translitTitle": "Balad",
    "UStranslitTitle": "Balad",
    "translitSimpleTitle": "Balad",
    "topType": "temp",
    },

{
    "source": "Hadiyatarifin",
    "lat": 36.45952,
    "lon": 55.07205,
    "value": 5,
    "size": 11,
    "arTitle": "بسطام",
    "translitTitle": "Bisṭām",
    "UStranslitTitle": "Bisṭām",
    "translitSimpleTitle": "Bistam",
    "topType": "temp",
    },

{
    "source": "Hadiyatarifin",
    "lat": 32.61792,
    "lon": 44.03706,
    "value": 4,
    "size": 9,
    "arTitle": "كربلاء",
    "translitTitle": "Karbalāʾ",
    "UStranslitTitle": "Karbalāʾ",
    "translitSimpleTitle": "Karbala",
    "topType": "temp",
    },

{
    "source": "Hadiyatarifin",
    "lat": 34.63354,
    "lon": 50.90695,
    "value": 4,
    "size": 9,
    "arTitle": "قم",
    "translitTitle": "Qumm",
    "UStranslitTitle": "Qumm",
    "translitSimpleTitle": "Qumm",
    "topType": "temp",
    },

{
    "source": "Hadiyatarifin",
    "lat": 39.96270,
    "lon": -6.55006,
    "value": 4,
    "size": 9,
    "arTitle": "قرية",
    "translitTitle": "Quriyyaŧ",
    "UStranslitTitle": "Quriyya",
    "translitSimpleTitle": "Quriyya",
    "topType": "temp",
    },

{
    "source": "Hadiyatarifin",
    "lat": 31.49664,
    "lon": 34.45664,
    "value": 4,
    "size": 9,
    "arTitle": "غزة",
    "translitTitle": "Ġazzaŧ",
    "UStranslitTitle": "Ghazza",
    "translitSimpleTitle": "Ghazza",
    "topType": "towns",
    },

{
    "source": "Hadiyatarifin",
    "lat": 36.90807,
    "lon": 34.95529,
    "value": 4,
    "size": 9,
    "arTitle": "طرسوس|أنطرسوس|أنطرطوس",
    "translitTitle": "Ṭarsūs/Anṭarsūs/Anṭarṭūs",
    "UStranslitTitle": "Ṭarsūs/Anṭarsūs/Anṭarṭūs",
    "translitSimpleTitle": "Tarsus/Antarsus/Antartus",
    "topType": "towns",
    },

{
    "source": "Hadiyatarifin",
    "lat": 41.11585,
    "lon": 48.75339,
    "value": 4,
    "size": 9,
    "arTitle": "شروان",
    "translitTitle": "Širwān",
    "UStranslitTitle": "Shirwān",
    "translitSimpleTitle": "Shirwan",
    "topType": "regions",
    },

{
    "source": "Hadiyatarifin",
    "lat": 36.51694,
    "lon": 61.18671,
    "value": 4,
    "size": 9,
    "arTitle": "سرخس",
    "translitTitle": "Saraḫs",
    "UStranslitTitle": "Sarakhs",
    "translitSimpleTitle": "Sarakhs",
    "topType": "temp",
    },

{
    "source": "Hadiyatarifin",
    "lat": 34.60195,
    "lon": 47.49055,
    "value": 4,
    "size": 9,
    "arTitle": "دينور",
    "translitTitle": "Dīnawar",
    "UStranslitTitle": "Dīnawar",
    "translitSimpleTitle": "Dinawar",
    "topType": "temp",
    },

{
    "source": "Hadiyatarifin",
    "lat": 34.01251,
    "lon": 36.19213,
    "value": 4,
    "size": 9,
    "arTitle": "بعلبك",
    "translitTitle": "Baʿlabakk",
    "UStranslitTitle": "Baʿlabakk",
    "translitSimpleTitle": "Balabakk",
    "topType": "towns",
    },

{
    "source": "Hadiyatarifin",
    "lat": 32.97543,
    "lon": 35.63816,
    "value": 4,
    "size": 9,
    "arTitle": "الحلة",
    "translitTitle": "al-Ḥulaŧ",
    "UStranslitTitle": "al-Ḥula",
    "translitSimpleTitle": "al-Hula",
    "topType": "regions",
    },

{
    "source": "Hadiyatarifin",
    "lat": 37.97890,
    "lon": 41.65964,
    "value": 4,
    "size": 9,
    "arTitle": "أرزن",
    "translitTitle": "Arzan",
    "UStranslitTitle": "Arzan",
    "translitSimpleTitle": "Arzan",
    "topType": "temp",
    },

{
    "source": "Hadiyatarifin",
    "lat": 38.24076,
    "lon": 47.95801,
    "value": 4,
    "size": 9,
    "arTitle": "أذربيجان",
    "translitTitle": "Aḏarbayǧān",
    "UStranslitTitle": "Adharbayjān",
    "translitSimpleTitle": "Adharbayjan",
    "topType": "regions",
    },

{
    "source": "Hadiyatarifin",
    "lat": 33.91455,
    "lon": -5.56626,
    "value": 3,
    "size": 7,
    "arTitle": "مكناسة",
    "translitTitle": "Miknāsaŧ",
    "UStranslitTitle": "Miknāsa",
    "translitSimpleTitle": "Miknasa",
    "topType": "temp",
    },

{
    "source": "Hadiyatarifin",
    "lat": 37.58314,
    "lon": 36.92987,
    "value": 3,
    "size": 7,
    "arTitle": "مرعش",
    "translitTitle": "Marʿaš",
    "UStranslitTitle": "Marʿash",
    "translitSimpleTitle": "Marash",
    "topType": "temp",
    },

{
    "source": "Hadiyatarifin",
    "lat": 37.99945,
    "lon": -1.11443,
    "value": 3,
    "size": 7,
    "arTitle": "مرسية",
    "translitTitle": "Mursiyaŧ",
    "UStranslitTitle": "Mursiya",
    "translitSimpleTitle": "Mursiya",
    "topType": "temp",
    },

{
    "source": "Hadiyatarifin",
    "lat": 13.32902,
    "lon": 43.26069,
    "value": 3,
    "size": 7,
    "arTitle": "مخا",
    "translitTitle": "Muḫā",
    "UStranslitTitle": "Mukhā",
    "translitSimpleTitle": "Mukha",
    "topType": "temp",
    },

{
    "source": "Hadiyatarifin",
    "lat": 28.48590,
    "lon": 66.29529,
    "value": 3,
    "size": 7,
    "arTitle": "سورة",
    "translitTitle": "Sūraŧ",
    "UStranslitTitle": "Sūra",
    "translitSimpleTitle": "Sura",
    "topType": "temp",
    },

{
    "source": "Hadiyatarifin",
    "lat": 36.98351,
    "lon": -4.40368,
    "value": 3,
    "size": 7,
    "arTitle": "رية",
    "translitTitle": "Rayyaŧ",
    "UStranslitTitle": "Rayya",
    "translitSimpleTitle": "Rayya",
    "topType": "temp",
    },

{
    "source": "Hadiyatarifin",
    "lat": 38.76551,
    "lon": 42.51044,
    "value": 3,
    "size": 7,
    "arTitle": "خلاط",
    "translitTitle": "Ḫilāṭ",
    "UStranslitTitle": "Khilāṭ",
    "translitSimpleTitle": "Khilat",
    "topType": "temp",
    },

{
    "source": "Hadiyatarifin",
    "lat": 21.46201,
    "lon": 39.17790,
    "value": 3,
    "size": 7,
    "arTitle": "جدة",
    "translitTitle": "Ǧuddaŧ",
    "UStranslitTitle": "Judda",
    "translitSimpleTitle": "Judda",
    "topType": "temp",
    },

{
    "source": "Hadiyatarifin",
    "lat": 39.43516,
    "lon": -0.41486,
    "value": 3,
    "size": 7,
    "arTitle": "بلنسية",
    "translitTitle": "Balansiyyaŧ",
    "UStranslitTitle": "Balansiyya",
    "translitSimpleTitle": "Balansiyya",
    "topType": "temp",
    },

{
    "source": "Hadiyatarifin",
    "lat": 36.70199,
    "lon": 5.04769,
    "value": 3,
    "size": 7,
    "arTitle": "بجاية",
    "translitTitle": "Baǧāyaŧ",
    "UStranslitTitle": "Bajāya",
    "translitSimpleTitle": "Bajaya",
    "topType": "temp",
    },

{
    "source": "Hadiyatarifin",
    "lat": 31.53018,
    "lon": 35.08912,
    "value": 3,
    "size": 7,
    "arTitle": "حبرة|الخليل|حبرون|مسجد إبراهيم",
    "translitTitle": "Ḥabraŧ/al-Ḫalīl/Ḥabrūn/Masǧid Ibrāhīm",
    "UStranslitTitle": "Ḥabrat/al-Khalīl/Ḥabrūn/Masjid Ibrāhīm",
    "translitSimpleTitle": "Habra/al-Khalil/Habrun/Masjid Ibrahim",
    "topType": "towns",
    },

{
    "source": "Hadiyatarifin",
    "lat": 30.00653,
    "lon": 31.20183,
    "value": 3,
    "size": 7,
    "arTitle": "الجيزة",
    "translitTitle": "al-Ǧīzaŧ",
    "UStranslitTitle": "al-Jīza",
    "translitSimpleTitle": "al-Jiza",
    "topType": "temp",
    },

{
    "source": "Hadiyatarifin",
    "lat": 27.25207,
    "lon": 31.07519,
    "value": 3,
    "size": 7,
    "arTitle": "أسيوط",
    "translitTitle": "Asyūṭ",
    "UStranslitTitle": "Asyūṭ",
    "translitSimpleTitle": "Asyut",
    "topType": "temp",
    },

{
    "source": "Hadiyatarifin",
    "lat": 14.21583,
    "lon": 44.41651,
    "value": 2,
    "size": 4,
    "arTitle": "يحصب",
    "translitTitle": "Yaḥṣib",
    "UStranslitTitle": "Yaḥṣib",
    "translitSimpleTitle": "Yahsib",
    "topType": "regions",
    },

{
    "source": "Hadiyatarifin",
    "lat": 38.14322,
    "lon": 41.00798,
    "value": 2,
    "size": 4,
    "arTitle": "ميافارقين",
    "translitTitle": "Mayyāfāriqīn",
    "UStranslitTitle": "Mayyāfāriqīn",
    "translitSimpleTitle": "Mayyafariqin",
    "topType": "temp",
    },

{
    "source": "Hadiyatarifin",
    "lat": 30.45505,
    "lon": 30.91950,
    "value": 2,
    "size": 4,
    "arTitle": "منوف",
    "translitTitle": "Manūf",
    "UStranslitTitle": "Manūf",
    "translitSimpleTitle": "Manuf",
    "topType": "temp",
    },

{
    "source": "Hadiyatarifin",
    "lat": 35.75548,
    "lon": 10.80402,
    "value": 2,
    "size": 4,
    "arTitle": "منستير",
    "translitTitle": "Munastīr",
    "UStranslitTitle": "Munastīr",
    "translitSimpleTitle": "Munastir",
    "topType": "temp",
    },

{
    "source": "Hadiyatarifin",
    "lat": 37.34276,
    "lon": 46.24758,
    "value": 2,
    "size": 4,
    "arTitle": "مراغة",
    "translitTitle": "Marāġaŧ",
    "UStranslitTitle": "Marāgha",
    "translitSimpleTitle": "Maragha",
    "topType": "temp",
    },

{
    "source": "Hadiyatarifin",
    "lat": 37.30186,
    "lon": 40.71117,
    "value": 2,
    "size": 4,
    "arTitle": "ماردين",
    "translitTitle": "Mārdīn",
    "UStranslitTitle": "Mārdīn",
    "translitSimpleTitle": "Mardin",
    "topType": "temp",
    },

{
    "source": "Hadiyatarifin",
    "lat": 29.60743,
    "lon": 51.68412,
    "value": 2,
    "size": 4,
    "arTitle": "كازرون",
    "translitTitle": "Kāzarūn",
    "UStranslitTitle": "Kāzarūn",
    "translitSimpleTitle": "Kazarun",
    "topType": "temp",
    },

{
    "source": "Hadiyatarifin",
    "lat": 32.86543,
    "lon": 35.21458,
    "value": 2,
    "size": 4,
    "arTitle": "كابل",
    "translitTitle": "Kābul",
    "UStranslitTitle": "Kābul",
    "translitSimpleTitle": "Kabul",
    "topType": "villages",
    },

{
    "source": "Hadiyatarifin",
    "lat": 35.99617,
    "lon": 37.02701,
    "value": 2,
    "size": 4,
    "arTitle": "قنسرين",
    "translitTitle": "Qinnasrīn",
    "UStranslitTitle": "Qinnasrīn",
    "translitSimpleTitle": "Qinnasrin",
    "topType": "capitals",
    },

{
    "source": "Hadiyatarifin",
    "lat": 31.66572,
    "lon": 34.55455,
    "value": 2,
    "size": 4,
    "arTitle": "عسقلان",
    "translitTitle": "ʿAsqalān",
    "UStranslitTitle": "ʿAsqalān",
    "translitSimpleTitle": "Asqalan",
    "topType": "towns",
    },

{
    "source": "Hadiyatarifin",
    "lat": 36.42208,
    "lon": 59.49915,
    "value": 2,
    "size": 4,
    "arTitle": "طوس|طابران",
    "translitTitle": "Ṭūs/Ṭābarān",
    "UStranslitTitle": "Ṭūs/Ṭābarān",
    "translitSimpleTitle": "Tus/Tabaran",
    "topType": "temp",
    },

{
    "source": "Hadiyatarifin",
    "lat": 36.34732,
    "lon": 52.60329,
    "value": 2,
    "size": 4,
    "arTitle": "طبرستان",
    "translitTitle": "Ṭabaristān",
    "UStranslitTitle": "Ṭabaristān",
    "translitSimpleTitle": "Tabaristan",
    "topType": "temp",
    },

{
    "source": "Hadiyatarifin",
    "lat": 35.29674,
    "lon": -5.52392,
    "value": 2,
    "size": 4,
    "arTitle": "صنهاجة",
    "translitTitle": "Ṣanhāǧaŧ",
    "UStranslitTitle": "Ṣanhāja",
    "translitSimpleTitle": "Sanhaja",
    "topType": "temp",
    },

{
    "source": "Hadiyatarifin",
    "lat": 35.85660,
    "lon": 38.41040,
    "value": 2,
    "size": 4,
    "arTitle": "صفين",
    "translitTitle": "Ṣiffīn ?",
    "UStranslitTitle": "Ṣiffīn ?",
    "translitSimpleTitle": "Siffin ?",
    "topType": "temp",
    },

{
    "source": "Hadiyatarifin",
    "lat": 36.69169,
    "lon": -6.10856,
    "value": 2,
    "size": 4,
    "arTitle": "شريش",
    "translitTitle": "Šarīš",
    "UStranslitTitle": "Sharīsh",
    "translitSimpleTitle": "Sharish",
    "topType": "temp",
    },

{
    "source": "Hadiyatarifin",
    "lat": 36.46640,
    "lon": -5.91433,
    "value": 2,
    "size": 4,
    "arTitle": "شذونة",
    "translitTitle": "Šaḏūnaŧ",
    "UStranslitTitle": "Shadhūna",
    "translitSimpleTitle": "Shadhuna",
    "topType": "temp",
    },

{
    "source": "Hadiyatarifin",
    "lat": 32.24535,
    "lon": 44.36844,
    "value": 2,
    "size": 4,
    "arTitle": "شاهي",
    "translitTitle": "Šāhī ?",
    "UStranslitTitle": "Shāhī ?",
    "translitSimpleTitle": "Shahi ?",
    "topType": "temp",
    },

{
    "source": "Hadiyatarifin",
    "lat": 35.81044,
    "lon": 10.61560,
    "value": 2,
    "size": 4,
    "arTitle": "سوسة",
    "translitTitle": "Sūsaŧ",
    "UStranslitTitle": "Sūsa",
    "translitSimpleTitle": "Susa",
    "topType": "temp",
    },

{
    "source": "Hadiyatarifin",
    "lat": 31.27819,
    "lon": -4.23723,
    "value": 2,
    "size": 4,
    "arTitle": "سجلماسة",
    "translitTitle": "Siǧilmāsaŧ",
    "UStranslitTitle": "Sijilmāsa",
    "translitSimpleTitle": "Sijilmasa",
    "topType": "temp",
    },

{
    "source": "Hadiyatarifin",
    "lat": 35.86107,
    "lon": -5.33338,
    "value": 2,
    "size": 4,
    "arTitle": "سبتة",
    "translitTitle": "Sabtaŧ",
    "UStranslitTitle": "Sabta",
    "translitSimpleTitle": "Sabta",
    "topType": "temp",
    },

{
    "source": "Hadiyatarifin",
    "lat": 34.97799,
    "lon": 50.42711,
    "value": 2,
    "size": 4,
    "arTitle": "ساوة",
    "translitTitle": "Sāwaŧ",
    "UStranslitTitle": "Sāwa",
    "translitSimpleTitle": "Sawa",
    "topType": "temp",
    },

{
    "source": "Hadiyatarifin",
    "lat": 33.99489,
    "lon": -6.88943,
    "value": 2,
    "size": 4,
    "arTitle": "رباط",
    "translitTitle": "Ribāṭ",
    "UStranslitTitle": "Ribāṭ",
    "translitSimpleTitle": "Ribat",
    "topType": "temp",
    },

{
    "source": "Hadiyatarifin",
    "lat": 31.14140,
    "lon": 31.35040,
    "value": 2,
    "size": 4,
    "arTitle": "دميرة",
    "translitTitle": "Damīraŧ",
    "UStranslitTitle": "Damīra",
    "translitSimpleTitle": "Damira",
    "topType": "temp",
    },

{
    "source": "Hadiyatarifin",
    "lat": 33.46544,
    "lon": 36.23184,
    "value": 2,
    "size": 4,
    "arTitle": "داريا",
    "translitTitle": "Dārayyā",
    "UStranslitTitle": "Dārayyā",
    "translitSimpleTitle": "Darayya",
    "topType": "villages",
    },

{
    "source": "Hadiyatarifin",
    "lat": 35.72110,
    "lon": 65.10068,
    "value": 2,
    "size": 4,
    "arTitle": "جوزجان",
    "translitTitle": "Ǧūzǧān",
    "UStranslitTitle": "Jūzjān",
    "translitSimpleTitle": "Juzjan",
    "topType": "regions",
    },

{
    "source": "Hadiyatarifin",
    "lat": 17.58374,
    "lon": 42.51067,
    "value": 2,
    "size": 4,
    "arTitle": "تهامة",
    "translitTitle": "Tihāmaŧ",
    "UStranslitTitle": "Tihāma",
    "translitSimpleTitle": "Tihama",
    "topType": "regions",
    },

{
    "source": "Hadiyatarifin",
    "lat": 34.59215,
    "lon": 43.69617,
    "value": 2,
    "size": 4,
    "arTitle": "تكريت",
    "translitTitle": "Takrīt",
    "UStranslitTitle": "Takrīt",
    "translitSimpleTitle": "Takrit",
    "topType": "temp",
    },

{
    "source": "Hadiyatarifin",
    "lat": 32.05110,
    "lon": 48.85461,
    "value": 2,
    "size": 4,
    "arTitle": "تستر",
    "translitTitle": "Tustar",
    "UStranslitTitle": "Tustar",
    "translitSimpleTitle": "Tustar",
    "topType": "temp",
    },

{
    "source": "Hadiyatarifin",
    "lat": 54.15460,
    "lon": 48.40369,
    "value": 2,
    "size": 4,
    "arTitle": "بلغار",
    "translitTitle": "Bulġār",
    "UStranslitTitle": "Bulghār",
    "translitSimpleTitle": "Bulghar",
    "topType": "regions",
    },

{
    "source": "Hadiyatarifin",
    "lat": 36.67738,
    "lon": 9.20563,
    "value": 2,
    "size": 4,
    "arTitle": "باجة",
    "translitTitle": "Bāǧaŧ",
    "UStranslitTitle": "Bāja",
    "translitSimpleTitle": "Baja",
    "topType": "temp",
    },

{
    "source": "Hadiyatarifin",
    "lat": 36.19718,
    "lon": 36.18418,
    "value": 2,
    "size": 4,
    "arTitle": "أنطاكية",
    "translitTitle": "Anṭākiyyaŧ",
    "UStranslitTitle": "Anṭākiyya",
    "translitSimpleTitle": "Antakiyya",
    "topType": "towns",
    },

{
    "source": "Hadiyatarifin",
    "lat": 32.51100,
    "lon": 44.89011,
    "value": 2,
    "size": 4,
    "arTitle": "النيل",
    "translitTitle": "al-Nīl",
    "UStranslitTitle": "al-Nīl",
    "translitSimpleTitle": "al-Nil",
    "topType": "temp",
    },

{
    "source": "Hadiyatarifin",
    "lat": 33.43161,
    "lon": 44.59405,
    "value": 2,
    "size": 4,
    "arTitle": "النهروان",
    "translitTitle": "al-Nahrawān",
    "UStranslitTitle": "al-Nahrawān",
    "translitSimpleTitle": "al-Nahrawan",
    "topType": "temp",
    },

{
    "source": "Hadiyatarifin",
    "lat": 39.41449,
    "lon": 65.93205,
    "value": 2,
    "size": 4,
    "arTitle": "الصغد",
    "translitTitle": "al-Ṣuġd",
    "UStranslitTitle": "al-Ṣughd",
    "translitSimpleTitle": "al-Sughd",
    "topType": "regions",
    },

{
    "source": "Hadiyatarifin",
    "lat": 32.01734,
    "lon": 44.37232,
    "value": 2,
    "size": 4,
    "arTitle": "الحيرة",
    "translitTitle": "al-Ḥīraŧ",
    "UStranslitTitle": "al-Ḥīra",
    "translitSimpleTitle": "al-Hira",
    "topType": "temp",
    },

{
    "source": "Hadiyatarifin",
    "lat": 25.32189,
    "lon": 32.55162,
    "value": 2,
    "size": 4,
    "arTitle": "أسنا",
    "translitTitle": "Asnā",
    "UStranslitTitle": "Asnā",
    "translitSimpleTitle": "Asna",
    "topType": "temp",
    },

{
    "source": "Hadiyatarifin",
    "lat": 31.15094,
    "lon": 53.25737,
    "value": 2,
    "size": 4,
    "arTitle": "أبرقوه",
    "translitTitle": "Abarqūh",
    "UStranslitTitle": "Abarqūh",
    "translitSimpleTitle": "Abarquh",
    "topType": "temp",
    },


]}
