
var places = { data:[
{
    "source": "iFarhunDMfMACM",
    "lat": 37.20621,
    "lon": -3.59980,
    "value": 87,
    "size": 40,
    "arTitle": "غرناطة",
    "translitTitle": "Ġarnāṭaŧ",
    "UStranslitTitle": "Gharnāṭa",
    "translitSimpleTitle": "Gharnata",
    "topType": "temp",
    },

{
    "source": "iFarhunDMfMACM",
    "lat": 24.47782,
    "lon": 39.60908,
    "value": 83,
    "size": 39,
    "arTitle": "يثرب|المدينة",
    "translitTitle": "Yaṯrib/al-Madīnaŧ",
    "UStranslitTitle": "Yathrib/al-Madīna",
    "translitSimpleTitle": "Yathrib/al-Madina",
    "topType": "temp",
    },

{
    "source": "iFarhunDMfMACM",
    "lat": 35.70049,
    "lon": 10.14137,
    "value": 48,
    "size": 34,
    "arTitle": "القيروان",
    "translitTitle": "al-Qayrawān",
    "UStranslitTitle": "al-Qayrawān",
    "translitSimpleTitle": "al-Qayrawan",
    "topType": "temp",
    },

{
    "source": "iFarhunDMfMACM",
    "lat": 33.35932,
    "lon": 44.35693,
    "value": 42,
    "size": 33,
    "arTitle": "بغداد",
    "translitTitle": "Baġdād",
    "UStranslitTitle": "Baghdād",
    "translitSimpleTitle": "Baghdad",
    "topType": "temp",
    },

{
    "source": "iFarhunDMfMACM",
    "lat": 39.88926,
    "lon": -4.05210,
    "value": 38,
    "size": 32,
    "arTitle": "طليطلة",
    "translitTitle": "Ṭulayṭilaŧ",
    "UStranslitTitle": "Ṭulayṭila",
    "translitSimpleTitle": "Tulaytila",
    "topType": "temp",
    },

{
    "source": "iFarhunDMfMACM",
    "lat": 35.86107,
    "lon": -5.33338,
    "value": 38,
    "size": 32,
    "arTitle": "سبتة",
    "translitTitle": "Sabtaŧ",
    "UStranslitTitle": "Sabta",
    "translitSimpleTitle": "Sabta",
    "topType": "temp",
    },

{
    "source": "iFarhunDMfMACM",
    "lat": 21.39132,
    "lon": 39.83612,
    "value": 36,
    "size": 32,
    "arTitle": "مكة",
    "translitTitle": "Makkaŧ",
    "UStranslitTitle": "Makka",
    "translitSimpleTitle": "Makka",
    "topType": "temp",
    },

{
    "source": "iFarhunDMfMACM",
    "lat": 31.19490,
    "lon": 29.90981,
    "value": 34,
    "size": 31,
    "arTitle": "الإسكندرية",
    "translitTitle": "al-Iskandariyyaŧ",
    "UStranslitTitle": "al-Iskandariyya",
    "translitSimpleTitle": "al-Iskandariyya",
    "topType": "temp",
    },

{
    "source": "iFarhunDMfMACM",
    "lat": 37.40790,
    "lon": -5.96199,
    "value": 31,
    "size": 30,
    "arTitle": "إشبيلية",
    "translitTitle": "Išbīliyyaŧ",
    "UStranslitTitle": "Ishbīliyya",
    "translitSimpleTitle": "Ishbiliyya",
    "topType": "temp",
    },

{
    "source": "iFarhunDMfMACM",
    "lat": 36.77071,
    "lon": 10.17736,
    "value": 25,
    "size": 28,
    "arTitle": "تونس",
    "translitTitle": "Tūnis",
    "UStranslitTitle": "Tūnis",
    "translitSimpleTitle": "Tunis",
    "topType": "temp",
    },

{
    "source": "iFarhunDMfMACM",
    "lat": 30.40147,
    "lon": 47.71735,
    "value": 23,
    "size": 28,
    "arTitle": "البصرة",
    "translitTitle": "al-Baṣraŧ",
    "UStranslitTitle": "al-Baṣra",
    "translitSimpleTitle": "al-Basra",
    "topType": "temp",
    },

{
    "source": "iFarhunDMfMACM",
    "lat": 36.74791,
    "lon": -4.43066,
    "value": 19,
    "size": 26,
    "arTitle": "مالقة",
    "translitTitle": "Māliqaŧ",
    "UStranslitTitle": "Māliqa",
    "translitSimpleTitle": "Maliqa",
    "topType": "temp",
    },

{
    "source": "iFarhunDMfMACM",
    "lat": 34.06727,
    "lon": -5.02852,
    "value": 15,
    "size": 24,
    "arTitle": "فاس",
    "translitTitle": "Fās",
    "UStranslitTitle": "Fās",
    "translitSimpleTitle": "Fas",
    "topType": "temp",
    },

{
    "source": "iFarhunDMfMACM",
    "lat": 36.86202,
    "lon": -2.50099,
    "value": 11,
    "size": 21,
    "arTitle": "المرية",
    "translitTitle": "al-Mariyyaŧ",
    "UStranslitTitle": "al-Mariyya",
    "translitSimpleTitle": "al-Mariyya",
    "topType": "temp",
    },

{
    "source": "iFarhunDMfMACM",
    "lat": 34.88186,
    "lon": -1.32364,
    "value": 10,
    "size": 20,
    "arTitle": "تلمسان",
    "translitTitle": "Tilimsān",
    "UStranslitTitle": "Tilimsān",
    "translitSimpleTitle": "Tilimsan",
    "topType": "temp",
    },

{
    "source": "iFarhunDMfMACM",
    "lat": 36.70199,
    "lon": 5.04769,
    "value": 10,
    "size": 20,
    "arTitle": "بجاية",
    "translitTitle": "Baǧāyaŧ",
    "UStranslitTitle": "Bajāya",
    "translitSimpleTitle": "Bajaya",
    "topType": "temp",
    },

{
    "source": "iFarhunDMfMACM",
    "lat": 33.51843,
    "lon": 36.30199,
    "value": 9,
    "size": 19,
    "arTitle": "دمشق",
    "translitTitle": "Dimašq",
    "UStranslitTitle": "Dimashq",
    "translitSimpleTitle": "Dimashq",
    "topType": "metropoles",
    },

{
    "source": "iFarhunDMfMACM",
    "lat": 39.43516,
    "lon": -0.41486,
    "value": 9,
    "size": 19,
    "arTitle": "بلنسية",
    "translitTitle": "Balansiyyaŧ",
    "UStranslitTitle": "Balansiyya",
    "translitSimpleTitle": "Balansiyya",
    "topType": "temp",
    },

{
    "source": "iFarhunDMfMACM",
    "lat": 23.51137,
    "lon": 39.02138,
    "value": 9,
    "size": 19,
    "arTitle": "الحجاز",
    "translitTitle": "al-Ḥiǧāz",
    "UStranslitTitle": "al-Ḥijāz",
    "translitSimpleTitle": "al-Hijaz",
    "topType": "regions",
    },

{
    "source": "iFarhunDMfMACM",
    "lat": 37.78977,
    "lon": -3.80302,
    "value": 8,
    "size": 18,
    "arTitle": "جيان",
    "translitTitle": "Ǧayyān",
    "UStranslitTitle": "Jayyān",
    "translitSimpleTitle": "Jayyan",
    "topType": "temp",
    },

{
    "source": "iFarhunDMfMACM",
    "lat": 37.99945,
    "lon": -1.11443,
    "value": 6,
    "size": 16,
    "arTitle": "مرسية",
    "translitTitle": "Mursiyaŧ",
    "UStranslitTitle": "Mursiya",
    "translitSimpleTitle": "Mursiya",
    "topType": "temp",
    },

{
    "source": "iFarhunDMfMACM",
    "lat": 30.05778,
    "lon": 31.24168,
    "value": 6,
    "size": 16,
    "arTitle": "القاهرة",
    "translitTitle": "al-Qāhiraŧ",
    "UStranslitTitle": "al-Qāhira",
    "translitSimpleTitle": "al-Qahira",
    "topType": "temp",
    },

{
    "source": "iFarhunDMfMACM",
    "lat": 34.40681,
    "lon": 8.82032,
    "value": 4,
    "size": 12,
    "arTitle": "قفصة",
    "translitTitle": "Qafṣaŧ",
    "UStranslitTitle": "Qafṣa",
    "translitSimpleTitle": "Qafsa",
    "topType": "temp",
    },

{
    "source": "iFarhunDMfMACM",
    "lat": 34.44044,
    "lon": 35.85194,
    "value": 4,
    "size": 12,
    "arTitle": "أطرابلس|طرابلس",
    "translitTitle": "Aṭrābulus/Ṭarābulus",
    "UStranslitTitle": "Aṭrābulus/Ṭarābulus",
    "translitSimpleTitle": "Atrabulus/Tarabulus",
    "topType": "towns",
    },

{
    "source": "iFarhunDMfMACM",
    "lat": 35.81044,
    "lon": 10.61560,
    "value": 4,
    "size": 12,
    "arTitle": "سوسة",
    "translitTitle": "Sūsaŧ",
    "UStranslitTitle": "Sūsa",
    "translitSimpleTitle": "Susa",
    "topType": "temp",
    },

{
    "source": "iFarhunDMfMACM",
    "lat": 36.19828,
    "lon": 37.17518,
    "value": 4,
    "size": 12,
    "arTitle": "حلب",
    "translitTitle": "Ḥalab",
    "UStranslitTitle": "Ḥalab",
    "translitSimpleTitle": "Halab",
    "topType": "capitals",
    },

{
    "source": "iFarhunDMfMACM",
    "lat": 26.22927,
    "lon": 61.33378,
    "value": 3,
    "size": 9,
    "arTitle": "به",
    "translitTitle": "Bih ?",
    "UStranslitTitle": "Bih ?",
    "translitSimpleTitle": "Bih ?",
    "topType": "temp",
    },

{
    "source": "iFarhunDMfMACM",
    "lat": 40.88072,
    "lon": 71.16439,
    "value": 3,
    "size": 9,
    "arTitle": "باب",
    "translitTitle": "Bāb",
    "UStranslitTitle": "Bāb",
    "translitSimpleTitle": "Bab",
    "topType": "temp",
    },

{
    "source": "iFarhunDMfMACM",
    "lat": 30.04301,
    "lon": 31.33835,
    "value": 3,
    "size": 9,
    "arTitle": "الفسطاط",
    "translitTitle": "al-Fusṭāṭ",
    "UStranslitTitle": "al-Fusṭāṭ",
    "translitSimpleTitle": "al-Fustat",
    "topType": "temp",
    },

{
    "source": "iFarhunDMfMACM",
    "lat": 30.04436,
    "lon": 31.21122,
    "value": 3,
    "size": 9,
    "arTitle": "الجزيرة",
    "translitTitle": "al-Ǧazīraŧ",
    "UStranslitTitle": "al-Jazīra",
    "translitSimpleTitle": "al-Jazira",
    "topType": "temp",
    },

{
    "source": "iFarhunDMfMACM",
    "lat": 32.66634,
    "lon": 51.66477,
    "value": 3,
    "size": 9,
    "arTitle": "إصبهان",
    "translitTitle": "Iṣbahān",
    "UStranslitTitle": "Iṣbahān",
    "translitSimpleTitle": "Isbahan",
    "topType": "temp",
    },

{
    "source": "iFarhunDMfMACM",
    "lat": 42.16109,
    "lon": -0.35371,
    "value": 2,
    "size": 6,
    "arTitle": "وشقة",
    "translitTitle": "Wašqaŧ",
    "UStranslitTitle": "Washqa",
    "translitSimpleTitle": "Washqa",
    "topType": "temp",
    },

{
    "source": "iFarhunDMfMACM",
    "lat": 36.90807,
    "lon": 34.95529,
    "value": 2,
    "size": 6,
    "arTitle": "طرسوس|أنطرسوس|أنطرطوس",
    "translitTitle": "Ṭarsūs/Anṭarsūs/Anṭarṭūs",
    "UStranslitTitle": "Ṭarsūs/Anṭarsūs/Anṭarṭūs",
    "translitSimpleTitle": "Tarsus/Antarsus/Antartus",
    "topType": "towns",
    },

{
    "source": "iFarhunDMfMACM",
    "lat": 14.19526,
    "lon": 43.23381,
    "value": 2,
    "size": 6,
    "arTitle": "زبيد",
    "translitTitle": "Zabīd",
    "UStranslitTitle": "Zabīd",
    "translitSimpleTitle": "Zabid",
    "topType": "temp",
    },

{
    "source": "iFarhunDMfMACM",
    "lat": 33.93695,
    "lon": 8.15027,
    "value": 2,
    "size": 6,
    "arTitle": "توزر",
    "translitTitle": "Tawzir",
    "UStranslitTitle": "Tawzir",
    "translitSimpleTitle": "Tawzir",
    "topType": "temp",
    },

{
    "source": "iFarhunDMfMACM",
    "lat": 36.47417,
    "lon": 42.75800,
    "value": 2,
    "size": 6,
    "arTitle": "بلد",
    "translitTitle": "Balad",
    "UStranslitTitle": "Balad",
    "translitSimpleTitle": "Balad",
    "topType": "temp",
    },

{
    "source": "iFarhunDMfMACM",
    "lat": 36.19718,
    "lon": 36.18418,
    "value": 2,
    "size": 6,
    "arTitle": "أنطاكية",
    "translitTitle": "Anṭākiyyaŧ",
    "UStranslitTitle": "Anṭākiyya",
    "translitSimpleTitle": "Antakiyya",
    "topType": "towns",
    },

{
    "source": "iFarhunDMfMACM",
    "lat": 31.92484,
    "lon": 34.86436,
    "value": 2,
    "size": 6,
    "arTitle": "الرملة",
    "translitTitle": "al-Ramlaŧ",
    "UStranslitTitle": "al-Ramla",
    "translitSimpleTitle": "al-Ramla",
    "topType": "capitals",
    },

{
    "source": "iFarhunDMfMACM",
    "lat": 29.12318,
    "lon": 53.44663,
    "value": 2,
    "size": 6,
    "arTitle": "الرباط",
    "translitTitle": "al-Ribāṭ",
    "UStranslitTitle": "al-Ribāṭ",
    "translitSimpleTitle": "al-Ribat",
    "topType": "temp",
    },

{
    "source": "iFarhunDMfMACM",
    "lat": 35.79513,
    "lon": 42.69628,
    "value": 2,
    "size": 6,
    "arTitle": "الحضر",
    "translitTitle": "al-Ḥaḍr",
    "UStranslitTitle": "al-Ḥaḍr",
    "translitSimpleTitle": "al-Hadr",
    "topType": "temp",
    },

{
    "source": "iFarhunDMfMACM",
    "lat": 37.53493,
    "lon": -5.10865,
    "value": 2,
    "size": 6,
    "arTitle": "إستجة",
    "translitTitle": "Istiǧaŧ",
    "UStranslitTitle": "Istija",
    "translitSimpleTitle": "Istija",
    "topType": "temp",
    },


]}
