
var places = { data:[
{
    "source": "TamimiTSfTH",
    "lat": 33.35932,
    "lon": 44.35693,
    "value": 151,
    "size": 40,
    "arTitle": "بغداد",
    "translitTitle": "Baġdād",
    "UStranslitTitle": "Baghdād",
    "translitSimpleTitle": "Baghdad",
    "topType": "temp",
    },

{
    "source": "TamimiTSfTH",
    "lat": 33.51843,
    "lon": 36.30199,
    "value": 108,
    "size": 37,
    "arTitle": "دمشق",
    "translitTitle": "Dimašq",
    "UStranslitTitle": "Dimashq",
    "translitSimpleTitle": "Dimashq",
    "topType": "metropoles",
    },

{
    "source": "TamimiTSfTH",
    "lat": 36.19828,
    "lon": 37.17518,
    "value": 87,
    "size": 35,
    "arTitle": "حلب",
    "translitTitle": "Ḥalab",
    "UStranslitTitle": "Ḥalab",
    "translitSimpleTitle": "Halab",
    "topType": "capitals",
    },

{
    "source": "TamimiTSfTH",
    "lat": 36.21692,
    "lon": 58.81270,
    "value": 61,
    "size": 32,
    "arTitle": "نيسابور",
    "translitTitle": "Naysābūr",
    "UStranslitTitle": "Naysābūr",
    "translitSimpleTitle": "Naysabur",
    "topType": "temp",
    },

{
    "source": "TamimiTSfTH",
    "lat": 30.05778,
    "lon": 31.24168,
    "value": 49,
    "size": 31,
    "arTitle": "القاهرة",
    "translitTitle": "al-Qāhiraŧ",
    "UStranslitTitle": "al-Qāhira",
    "translitSimpleTitle": "al-Qahira",
    "topType": "temp",
    },

{
    "source": "TamimiTSfTH",
    "lat": 39.67905,
    "lon": 67.03225,
    "value": 43,
    "size": 29,
    "arTitle": "سمرقند",
    "translitTitle": "Samarqand",
    "UStranslitTitle": "Samarqand",
    "translitSimpleTitle": "Samarqand",
    "topType": "temp",
    },

{
    "source": "TamimiTSfTH",
    "lat": 32.04478,
    "lon": 44.38138,
    "value": 37,
    "size": 28,
    "arTitle": "الكوفة",
    "translitTitle": "al-Kūfaŧ",
    "UStranslitTitle": "al-Kūfa",
    "translitSimpleTitle": "al-Kufa",
    "topType": "temp",
    },

{
    "source": "TamimiTSfTH",
    "lat": 21.39132,
    "lon": 39.83612,
    "value": 24,
    "size": 25,
    "arTitle": "مكة",
    "translitTitle": "Makkaŧ",
    "UStranslitTitle": "Makka",
    "translitSimpleTitle": "Makka",
    "topType": "temp",
    },

{
    "source": "TamimiTSfTH",
    "lat": 37.33269,
    "lon": 54.99028,
    "value": 24,
    "size": 25,
    "arTitle": "جرجان",
    "translitTitle": "Ǧurǧān",
    "UStranslitTitle": "Jurjān",
    "translitSimpleTitle": "Jurjan",
    "topType": "regions",
    },

{
    "source": "TamimiTSfTH",
    "lat": 32.66634,
    "lon": 51.66477,
    "value": 22,
    "size": 24,
    "arTitle": "إصبهان",
    "translitTitle": "Iṣbahān",
    "UStranslitTitle": "Iṣbahān",
    "translitSimpleTitle": "Isbahan",
    "topType": "temp",
    },

{
    "source": "TamimiTSfTH",
    "lat": 24.47782,
    "lon": 39.60908,
    "value": 18,
    "size": 23,
    "arTitle": "يثرب|المدينة",
    "translitTitle": "Yaṯrib/al-Madīnaŧ",
    "UStranslitTitle": "Yathrib/al-Madīna",
    "translitSimpleTitle": "Yathrib/al-Madina",
    "topType": "temp",
    },

{
    "source": "TamimiTSfTH",
    "lat": 38.86245,
    "lon": 65.81040,
    "value": 16,
    "size": 22,
    "arTitle": "نسف",
    "translitTitle": "Nasaf",
    "UStranslitTitle": "Nasaf",
    "translitSimpleTitle": "Nasaf",
    "topType": "temp",
    },

{
    "source": "TamimiTSfTH",
    "lat": 30.40147,
    "lon": 47.71735,
    "value": 16,
    "size": 22,
    "arTitle": "البصرة",
    "translitTitle": "al-Baṣraŧ",
    "UStranslitTitle": "al-Baṣra",
    "translitSimpleTitle": "al-Basra",
    "topType": "temp",
    },

{
    "source": "TamimiTSfTH",
    "lat": 40.88072,
    "lon": 71.16439,
    "value": 13,
    "size": 20,
    "arTitle": "باب",
    "translitTitle": "Bāb",
    "UStranslitTitle": "Bāb",
    "translitSimpleTitle": "Bab",
    "topType": "temp",
    },

{
    "source": "TamimiTSfTH",
    "lat": 37.67193,
    "lon": 62.10386,
    "value": 12,
    "size": 19,
    "arTitle": "مرو",
    "translitTitle": "Marw",
    "UStranslitTitle": "Marw",
    "translitSimpleTitle": "Marw",
    "topType": "temp",
    },

{
    "source": "TamimiTSfTH",
    "lat": 36.78497,
    "lon": 66.88305,
    "value": 12,
    "size": 19,
    "arTitle": "بلخ",
    "translitTitle": "Balḫ",
    "UStranslitTitle": "Balkh",
    "translitSimpleTitle": "Balkh",
    "topType": "temp",
    },

{
    "source": "TamimiTSfTH",
    "lat": 35.62914,
    "lon": 51.43887,
    "value": 12,
    "size": 19,
    "arTitle": "الري",
    "translitTitle": "al-Rayy",
    "UStranslitTitle": "al-Rayy",
    "translitSimpleTitle": "al-Rayy",
    "topType": "temp",
    },

{
    "source": "TamimiTSfTH",
    "lat": 32.59694,
    "lon": 45.42650,
    "value": 10,
    "size": 18,
    "arTitle": "النعمانية",
    "translitTitle": "al-Nuʿmāniyyaŧ",
    "UStranslitTitle": "al-Nuʿmāniyya",
    "translitSimpleTitle": "al-Numaniyya",
    "topType": "temp",
    },

{
    "source": "TamimiTSfTH",
    "lat": 31.77768,
    "lon": 35.20345,
    "value": 10,
    "size": 18,
    "arTitle": "بيت المقدس|القدس|إيليا",
    "translitTitle": "Bayt al-Maqdis/al-Quds/Īliyā",
    "UStranslitTitle": "Bayt al-Maqdis/al-Quds/Īliyā",
    "translitSimpleTitle": "Bayt al-Maqdis/al-Quds/Iliya",
    "topType": "towns",
    },

{
    "source": "TamimiTSfTH",
    "lat": 33.39492,
    "lon": 43.70150,
    "value": 10,
    "size": 18,
    "arTitle": "الأنبار",
    "translitTitle": "al-Anbār",
    "UStranslitTitle": "al-Anbār",
    "translitSimpleTitle": "al-Anbar",
    "topType": "temp",
    },

{
    "source": "TamimiTSfTH",
    "lat": 34.77554,
    "lon": 48.57908,
    "value": 9,
    "size": 17,
    "arTitle": "همذان",
    "translitTitle": "Hamaḏān",
    "UStranslitTitle": "Hamadhān",
    "translitSimpleTitle": "Hamadhan",
    "topType": "temp",
    },

{
    "source": "TamimiTSfTH",
    "lat": 36.51694,
    "lon": 61.18671,
    "value": 9,
    "size": 17,
    "arTitle": "سرخس",
    "translitTitle": "Saraḫs",
    "UStranslitTitle": "Sarakhs",
    "translitSimpleTitle": "Sarakhs",
    "topType": "temp",
    },

{
    "source": "TamimiTSfTH",
    "lat": 32.19497,
    "lon": 46.32308,
    "value": 6,
    "size": 14,
    "arTitle": "واسط",
    "translitTitle": "Wāsiṭ",
    "UStranslitTitle": "Wāsiṭ",
    "translitSimpleTitle": "Wasit",
    "topType": "temp",
    },

{
    "source": "TamimiTSfTH",
    "lat": 35.12587,
    "lon": 36.76872,
    "value": 6,
    "size": 14,
    "arTitle": "حماة",
    "translitTitle": "Ḥamāŧ",
    "UStranslitTitle": "Ḥamā",
    "translitSimpleTitle": "Hama",
    "topType": "towns",
    },

{
    "source": "TamimiTSfTH",
    "lat": 36.32809,
    "lon": 43.12700,
    "value": 6,
    "size": 14,
    "arTitle": "الموصل",
    "translitTitle": "al-Mawṣil",
    "UStranslitTitle": "al-Mawṣil",
    "translitSimpleTitle": "al-Mawsil",
    "topType": "temp",
    },

{
    "source": "TamimiTSfTH",
    "lat": 31.19490,
    "lon": 29.90981,
    "value": 6,
    "size": 14,
    "arTitle": "الإسكندرية",
    "translitTitle": "al-Iskandariyyaŧ",
    "UStranslitTitle": "al-Iskandariyya",
    "translitSimpleTitle": "al-Iskandariyya",
    "topType": "temp",
    },

{
    "source": "TamimiTSfTH",
    "lat": 31.49664,
    "lon": 34.45664,
    "value": 5,
    "size": 12,
    "arTitle": "غزة",
    "translitTitle": "Ġazzaŧ",
    "UStranslitTitle": "Ghazza",
    "translitSimpleTitle": "Ghazza",
    "topType": "towns",
    },

{
    "source": "TamimiTSfTH",
    "lat": 14.19526,
    "lon": 43.23381,
    "value": 5,
    "size": 12,
    "arTitle": "زبيد",
    "translitTitle": "Zabīd",
    "UStranslitTitle": "Zabīd",
    "translitSimpleTitle": "Zabid",
    "topType": "temp",
    },

{
    "source": "TamimiTSfTH",
    "lat": 36.15702,
    "lon": 54.35362,
    "value": 5,
    "size": 12,
    "arTitle": "دامغان",
    "translitTitle": "Dāmġān",
    "UStranslitTitle": "Dāmghān",
    "translitSimpleTitle": "Damghan",
    "topType": "temp",
    },

{
    "source": "TamimiTSfTH",
    "lat": 33.64370,
    "lon": 42.80628,
    "value": 4,
    "size": 11,
    "arTitle": "هيت",
    "translitTitle": "Hīt",
    "UStranslitTitle": "Hīt",
    "translitSimpleTitle": "Hit",
    "topType": "temp",
    },

{
    "source": "TamimiTSfTH",
    "lat": 36.27854,
    "lon": 50.00110,
    "value": 4,
    "size": 11,
    "arTitle": "قزوين",
    "translitTitle": "Qazwīn",
    "UStranslitTitle": "Qazwīn",
    "translitSimpleTitle": "Qazwin",
    "topType": "temp",
    },

{
    "source": "TamimiTSfTH",
    "lat": 33.54097,
    "lon": 68.40249,
    "value": 4,
    "size": 11,
    "arTitle": "غزنة",
    "translitTitle": "Ġaznaŧ",
    "UStranslitTitle": "Ghazna",
    "translitSimpleTitle": "Ghazna",
    "topType": "temp",
    },

{
    "source": "TamimiTSfTH",
    "lat": 35.75607,
    "lon": 52.07774,
    "value": 4,
    "size": 11,
    "arTitle": "دماوند",
    "translitTitle": "Dummāwand",
    "UStranslitTitle": "Dummāwand",
    "translitSimpleTitle": "Dummawand",
    "topType": "temp",
    },

{
    "source": "TamimiTSfTH",
    "lat": 34.73793,
    "lon": 36.72425,
    "value": 4,
    "size": 11,
    "arTitle": "حمص",
    "translitTitle": "Ḥimṣ",
    "UStranslitTitle": "Ḥimṣ",
    "translitSimpleTitle": "Hims",
    "topType": "capitals",
    },

{
    "source": "TamimiTSfTH",
    "lat": 32.50000,
    "lon": 36.47474,
    "value": 4,
    "size": 11,
    "arTitle": "بصرى",
    "translitTitle": "Buṣrá",
    "UStranslitTitle": "Buṣrā",
    "translitSimpleTitle": "Busra",
    "topType": "towns",
    },

{
    "source": "TamimiTSfTH",
    "lat": 36.54651,
    "lon": 37.98957,
    "value": 3,
    "size": 8,
    "arTitle": "منبج",
    "translitTitle": "Manbiǧ",
    "UStranslitTitle": "Manbij",
    "translitSimpleTitle": "Manbij",
    "topType": "temp",
    },

{
    "source": "TamimiTSfTH",
    "lat": 39.03102,
    "lon": 66.84071,
    "value": 3,
    "size": 8,
    "arTitle": "كش",
    "translitTitle": "Kišš",
    "UStranslitTitle": "Kishsh",
    "translitSimpleTitle": "Kishsh",
    "topType": "temp",
    },

{
    "source": "TamimiTSfTH",
    "lat": 29.61884,
    "lon": 52.52867,
    "value": 3,
    "size": 8,
    "arTitle": "شيراز",
    "translitTitle": "Šīrāz",
    "UStranslitTitle": "Shīrāz",
    "translitSimpleTitle": "Shiraz",
    "topType": "temp",
    },

{
    "source": "TamimiTSfTH",
    "lat": 41.65733,
    "lon": 59.97545,
    "value": 3,
    "size": 8,
    "arTitle": "خوارزم",
    "translitTitle": "Ḫuwārizm",
    "UStranslitTitle": "Khuwārizm",
    "translitSimpleTitle": "Khuwarizm",
    "topType": "regions",
    },

{
    "source": "TamimiTSfTH",
    "lat": 38.57711,
    "lon": 43.34872,
    "value": 2,
    "size": 5,
    "arTitle": "وان",
    "translitTitle": "Wān",
    "UStranslitTitle": "Wān",
    "translitSimpleTitle": "Wan",
    "topType": "temp",
    },

{
    "source": "TamimiTSfTH",
    "lat": 26.02153,
    "lon": 32.29854,
    "value": 2,
    "size": 5,
    "arTitle": "هو",
    "translitTitle": "Hū",
    "UStranslitTitle": "Hū",
    "translitSimpleTitle": "Hu",
    "topType": "temp",
    },

{
    "source": "TamimiTSfTH",
    "lat": 37.30186,
    "lon": 40.71117,
    "value": 2,
    "size": 5,
    "arTitle": "ماردين",
    "translitTitle": "Mārdīn",
    "UStranslitTitle": "Mārdīn",
    "translitSimpleTitle": "Mardin",
    "topType": "temp",
    },

{
    "source": "TamimiTSfTH",
    "lat": 39.96270,
    "lon": -6.55006,
    "value": 2,
    "size": 5,
    "arTitle": "قرية",
    "translitTitle": "Quriyyaŧ",
    "UStranslitTitle": "Quriyya",
    "translitSimpleTitle": "Quriyya",
    "topType": "temp",
    },

{
    "source": "TamimiTSfTH",
    "lat": 15.41877,
    "lon": 44.17050,
    "value": 2,
    "size": 5,
    "arTitle": "صنعاء",
    "translitTitle": "Ṣanʿāʾ",
    "UStranslitTitle": "Ṣanʿāʾ",
    "translitSimpleTitle": "Sana",
    "topType": "temp",
    },

{
    "source": "TamimiTSfTH",
    "lat": 36.20464,
    "lon": 57.70280,
    "value": 2,
    "size": 5,
    "arTitle": "بيهق",
    "translitTitle": "Bayhaq",
    "UStranslitTitle": "Bayhaq",
    "translitSimpleTitle": "Bayhaq",
    "topType": "regions",
    },

{
    "source": "TamimiTSfTH",
    "lat": 33.31703,
    "lon": 44.35293,
    "value": 2,
    "size": 5,
    "arTitle": "الكرخ",
    "translitTitle": "al-Karḫ",
    "UStranslitTitle": "al-Karkh",
    "translitSimpleTitle": "al-Karkh",
    "topType": "temp",
    },

{
    "source": "TamimiTSfTH",
    "lat": 30.01540,
    "lon": 31.24253,
    "value": 2,
    "size": 5,
    "arTitle": "القصر",
    "translitTitle": "al-Qaṣr",
    "UStranslitTitle": "al-Qaṣr",
    "translitSimpleTitle": "al-Qasr",
    "topType": "temp",
    },

{
    "source": "TamimiTSfTH",
    "lat": 31.92484,
    "lon": 34.86436,
    "value": 2,
    "size": 5,
    "arTitle": "الرملة",
    "translitTitle": "al-Ramlaŧ",
    "UStranslitTitle": "al-Ramla",
    "translitSimpleTitle": "al-Ramla",
    "topType": "capitals",
    },

{
    "source": "TamimiTSfTH",
    "lat": 35.64344,
    "lon": 38.78470,
    "value": 2,
    "size": 5,
    "arTitle": "الرصافة",
    "translitTitle": "al-Ruṣāfaŧ",
    "UStranslitTitle": "al-Ruṣāfa",
    "translitSimpleTitle": "al-Rusafa",
    "topType": "waystations",
    },

{
    "source": "TamimiTSfTH",
    "lat": 23.51137,
    "lon": 39.02138,
    "value": 2,
    "size": 5,
    "arTitle": "الحجاز",
    "translitTitle": "al-Ḥiǧāz",
    "UStranslitTitle": "al-Ḥijāz",
    "translitSimpleTitle": "al-Hijaz",
    "topType": "regions",
    },

{
    "source": "TamimiTSfTH",
    "lat": 30.04436,
    "lon": 31.21122,
    "value": 2,
    "size": 5,
    "arTitle": "الجزيرة",
    "translitTitle": "al-Ǧazīraŧ",
    "UStranslitTitle": "al-Jazīra",
    "translitSimpleTitle": "al-Jazira",
    "topType": "temp",
    },

{
    "source": "TamimiTSfTH",
    "lat": 29.97008,
    "lon": 52.92548,
    "value": 2,
    "size": 5,
    "arTitle": "إصطخر",
    "translitTitle": "Iṣṭaḫr",
    "UStranslitTitle": "Iṣṭakhr",
    "translitSimpleTitle": "Istakhr",
    "topType": "temp",
    },


]}
